examples/20200917_041957_001_03005A_UTA-ASTRIANet-02.tdm

CCSDS_TDM_VERS = 2.0
CREATION_DATE = 2020-09-17T04:29:29.437000Z
ORIGINATOR = UTA

META_START
COMMENT TRACK_ID = 20200917_041957_001_03005A_UTA-ASTRIANet-02
TIME_SYSTEM = UTC
START_TIME = 2020-09-17T04:19:56.716000Z
STOP_TIME = 2020-09-17T04:29:29.437000Z
PARTICIPANT_1 = 03005A
PARTICIPANT_2 = UTA-ASTRIANet-02
MODE = SEQUENTIAL
PATH = 1,2
TIMETAG_REF = RECEIVE
ANGLE_TYPE = RADEC
REFERENCE_FRAME = EME2000
CORRECTION_RECEIVE = 0.0
CORRECTIONS_APPLIED = NO
META_STOP

DATA_START
ANGLE_1 = 2020-09-17T04:19:56.716000Z 3.248498
ANGLE_2 = 2020-09-17T04:19:56.716000Z 51.543302

ANGLE_1 = 2020-09-17T04:20:04.192001Z 3.358273
ANGLE_2 = 2020-09-17T04:20:04.192001Z 51.575441

ANGLE_1 = 2020-09-17T04:20:11.696000Z 3.468729
ANGLE_2 = 2020-09-17T04:20:11.696000Z 51.607916

ANGLE_1 = 2020-09-17T04:20:19.190000Z 3.578959
ANGLE_2 = 2020-09-17T04:20:19.190000Z 51.640215

ANGLE_1 = 2020-09-17T04:20:26.614000Z 3.688704
ANGLE_2 = 2020-09-17T04:20:26.614000Z 51.672075

ANGLE_1 = 2020-09-17T04:20:34.043000Z 3.798180
ANGLE_2 = 2020-09-17T04:20:34.043000Z 51.703373

ANGLE_1 = 2020-09-17T04:20:41.512000Z 3.908791
ANGLE_2 = 2020-09-17T04:20:41.512000Z 51.735162

ANGLE_1 = 2020-09-17T04:20:48.953000Z 4.018540
ANGLE_2 = 2020-09-17T04:20:48.953000Z 51.766538

ANGLE_1 = 2020-09-17T04:20:56.367000Z 4.128773
ANGLE_2 = 2020-09-17T04:20:56.367000Z 51.797789

ANGLE_1 = 2020-09-17T04:21:03.784001Z 4.238806
ANGLE_2 = 2020-09-17T04:21:03.784001Z 51.828793

ANGLE_1 = 2020-09-17T04:21:18.649001Z 4.459815
ANGLE_2 = 2020-09-17T04:21:18.649001Z 51.891129

ANGLE_1 = 2020-09-17T04:21:26.069000Z 4.570480
ANGLE_2 = 2020-09-17T04:21:26.069000Z 51.922100

ANGLE_1 = 2020-09-17T04:21:33.548000Z 4.681944
ANGLE_2 = 2020-09-17T04:21:33.548000Z 51.952756

ANGLE_1 = 2020-09-17T04:21:48.435000Z 4.904308
ANGLE_2 = 2020-09-17T04:21:48.435000Z 52.013841

ANGLE_1 = 2020-09-17T04:21:55.855000Z 5.015494
ANGLE_2 = 2020-09-17T04:21:55.855000Z 52.044328

ANGLE_1 = 2020-09-17T04:22:03.286000Z 5.126821
ANGLE_2 = 2020-09-17T04:22:03.286000Z 52.074715

ANGLE_1 = 2020-09-17T04:22:10.711000Z 5.238085
ANGLE_2 = 2020-09-17T04:22:10.711000Z 52.104928

ANGLE_1 = 2020-09-17T04:22:18.155000Z 5.350071
ANGLE_2 = 2020-09-17T04:22:18.155000Z 52.135008

ANGLE_1 = 2020-09-17T04:22:25.598000Z 5.461940
ANGLE_2 = 2020-09-17T04:22:25.598000Z 52.165198

ANGLE_1 = 2020-09-17T04:22:47.860000Z 5.797316
ANGLE_2 = 2020-09-17T04:22:47.860000Z 52.254081

ANGLE_1 = 2020-09-17T04:22:55.292000Z 5.909889
ANGLE_2 = 2020-09-17T04:22:55.292000Z 52.283777

ANGLE_1 = 2020-09-17T04:23:02.714000Z 6.022095
ANGLE_2 = 2020-09-17T04:23:02.714000Z 52.312970

ANGLE_1 = 2020-09-17T04:23:10.135000Z 6.134245
ANGLE_2 = 2020-09-17T04:23:10.135000Z 52.342003

ANGLE_1 = 2020-09-17T04:23:17.556000Z 6.247359
ANGLE_2 = 2020-09-17T04:23:17.556000Z 52.371184

ANGLE_1 = 2020-09-17T04:23:32.433000Z 6.473300
ANGLE_2 = 2020-09-17T04:23:32.433000Z 52.429361

ANGLE_1 = 2020-09-17T04:23:39.867000Z 6.585969
ANGLE_2 = 2020-09-17T04:23:39.867000Z 52.458203

ANGLE_1 = 2020-09-17T04:23:47.292000Z 6.699013
ANGLE_2 = 2020-09-17T04:23:47.292000Z 52.486512

ANGLE_1 = 2020-09-17T04:23:54.732000Z 6.812628
ANGLE_2 = 2020-09-17T04:23:54.732000Z 52.515184

ANGLE_1 = 2020-09-17T04:24:09.609999Z 7.039504
ANGLE_2 = 2020-09-17T04:24:09.609999Z 52.572053

ANGLE_1 = 2020-09-17T04:24:24.499999Z 7.267579
ANGLE_2 = 2020-09-17T04:24:24.499999Z 52.628328

ANGLE_1 = 2020-09-17T04:24:31.955000Z 7.382088
ANGLE_2 = 2020-09-17T04:24:31.955000Z 52.656530

ANGLE_1 = 2020-09-17T04:24:39.375000Z 7.496149
ANGLE_2 = 2020-09-17T04:24:39.375000Z 52.684373

ANGLE_1 = 2020-09-17T04:24:54.219000Z 7.723987
ANGLE_2 = 2020-09-17T04:24:54.219000Z 52.739734

ANGLE_1 = 2020-09-17T04:25:01.635000Z 7.838584
ANGLE_2 = 2020-09-17T04:25:01.635000Z 52.766942

ANGLE_1 = 2020-09-17T04:25:16.507000Z 8.067921
ANGLE_2 = 2020-09-17T04:25:16.507000Z 52.821754

ANGLE_1 = 2020-09-17T04:25:24.006000Z 8.183617
ANGLE_2 = 2020-09-17T04:25:24.006000Z 52.848973

ANGLE_1 = 2020-09-17T04:25:38.864000Z 8.413576
ANGLE_2 = 2020-09-17T04:25:38.864000Z 52.903032

ANGLE_1 = 2020-09-17T04:25:46.279000Z 8.528400
ANGLE_2 = 2020-09-17T04:25:46.279000Z 52.929624

ANGLE_1 = 2020-09-17T04:26:01.169000Z 8.759842
ANGLE_2 = 2020-09-17T04:26:01.169000Z 52.983188

ANGLE_1 = 2020-09-17T04:26:16.004000Z 8.990455
ANGLE_2 = 2020-09-17T04:26:16.004000Z 53.035677

ANGLE_1 = 2020-09-17T04:26:23.395000Z 9.106021
ANGLE_2 = 2020-09-17T04:26:23.395000Z 53.061791

ANGLE_1 = 2020-09-17T04:26:30.828000Z 9.222104
ANGLE_2 = 2020-09-17T04:26:30.828000Z 53.088147

ANGLE_1 = 2020-09-17T04:26:45.667001Z 9.453873
ANGLE_2 = 2020-09-17T04:26:45.667001Z 53.139586

ANGLE_1 = 2020-09-17T04:26:53.162000Z 9.571126
ANGLE_2 = 2020-09-17T04:26:53.162000Z 53.165305

ANGLE_1 = 2020-09-17T04:27:08.050000Z 9.804699
ANGLE_2 = 2020-09-17T04:27:08.050000Z 53.216442

ANGLE_1 = 2020-09-17T04:27:37.773000Z 10.271951
ANGLE_2 = 2020-09-17T04:27:37.773000Z 53.316992

ANGLE_1 = 2020-09-17T04:27:45.204000Z 10.388900
ANGLE_2 = 2020-09-17T04:27:45.204000Z 53.341775

ANGLE_1 = 2020-09-17T04:27:52.683999Z 10.506562
ANGLE_2 = 2020-09-17T04:27:52.683999Z 53.366811

ANGLE_1 = 2020-09-17T04:28:07.548000Z 10.741854
ANGLE_2 = 2020-09-17T04:28:07.548000Z 53.415772

ANGLE_1 = 2020-09-17T04:28:14.976001Z 10.858774
ANGLE_2 = 2020-09-17T04:28:14.976001Z 53.439908

ANGLE_1 = 2020-09-17T04:28:22.479000Z 10.977002
ANGLE_2 = 2020-09-17T04:28:22.479000Z 53.464614

ANGLE_1 = 2020-09-17T04:28:29.975999Z 11.096570
ANGLE_2 = 2020-09-17T04:28:29.975999Z 53.488630

ANGLE_1 = 2020-09-17T04:28:37.396000Z 11.214277
ANGLE_2 = 2020-09-17T04:28:37.396000Z 53.512718

ANGLE_1 = 2020-09-17T04:28:44.817000Z 11.332456
ANGLE_2 = 2020-09-17T04:28:44.817000Z 53.536562

ANGLE_1 = 2020-09-17T04:28:52.231999Z 11.450103
ANGLE_2 = 2020-09-17T04:28:52.231999Z 53.560033

ANGLE_1 = 2020-09-17T04:28:59.664000Z 11.568808
ANGLE_2 = 2020-09-17T04:28:59.664000Z 53.583629

ANGLE_1 = 2020-09-17T04:29:07.104000Z 11.686583
ANGLE_2 = 2020-09-17T04:29:07.104000Z 53.607376

ANGLE_1 = 2020-09-17T04:29:14.537000Z 11.805260
ANGLE_2 = 2020-09-17T04:29:14.537000Z 53.630703

ANGLE_1 = 2020-09-17T04:29:21.974000Z 11.923952
ANGLE_2 = 2020-09-17T04:29:21.974000Z 53.653964

ANGLE_1 = 2020-09-17T04:29:29.437000Z 12.043078
ANGLE_2 = 2020-09-17T04:29:29.437000Z 53.676890
DATA_STOP
